{"businesses": [{"id": "bZ7lvi5_BQ6UKK10OKPV7Q", "alias": "sushi-taku-chicago-2", "name": "Sushi Taku", "image_url": "https://s3-media2.fl.yelpcdn.com/bphoto/R0BYumSz9-z1egLYH6Wdbw/o.jpg", "is_closed": false, "url": "https://www.yelp.com/biz/sushi-taku-chicago-2?adjust_creative=e8rBV-hfcPScCMjwOETgGg&utm_campaign=yelp_api_v3&utm_medium=api_v3_business_search&utm_source=e8rBV-hfcPScCMjwOETgGg", "review_count": 1097, "categories": [{"alias": "japanese", "title": "Japanese"}, {"alias": "sushi", "title": "Sushi Bars"}], "rating": 4.5, "coordinates": {"latitude": 41.90340202167879, "longitude": -87.67511680088914}, "transactions": ["pickup", "delivery"], "price": "$$", "location": {"address1": "1904 W Division St", "address2": null, "address3": "", "city": "Chicago", "zip_code": "60622", "country": "US", "state": "IL", "display_address": ["1904 W Division St", "Chicago, IL 60622"]}, "phone": "+17732528258", "display_phone": "(773) 252-8258", "distance": 293.6093219397592}, {"id": "qJuQGyHSy5OuAkyMwb2_xA", "alias": "nomonomo-sushi-chicago", "name": "Nomonomo Sushi", "image_url": "https://s3-media2.fl.yelpcdn.com/bphoto/AOv8r0ubyvtLi8i09z8_BQ/o.jpg", "is_closed": false, "url": "https://www.yelp.com/biz/nomonomo-sushi-chicago?adjust_creative=e8rBV-hfcPScCMjwOETgGg&utm_campaign=yelp_api_v3&utm_medium=api_v3_business_search&utm_source=e8rBV-hfcPScCMjwOETgGg", "review_count": 9, "categories": [{"alias": "japanese", "title": "Japanese"}, {"alias": "sushi", "title": "Sushi Bars"}, {"alias": "seafood", "title": "Seafood"}], "rating": 5.0, "coordinates": {"latitude": 41.9192, "longitude": -87.69182}, "transactions": [], "location": {"address1": "2096 N Milwaukee Ave", "address2": null, "address3": "", "city": "Chicago", "zip_code": "60647", "country": "US", "state": "IL", "display_address": ["2096 N Milwaukee Ave", "Chicago, IL 60647"]}, "phone": "", "display_phone": "", "distance": 1948.8751192001325}, {"id": "q7SQnw2xVHjWuyQXL3VHUg", "alias": "kai-zan-chicago", "name": "KAI ZAN", "image_url": "https://s3-media4.fl.yelpcdn.com/bphoto/G78K7DIhTrH0N1TXS32MMQ/o.jpg", "is_closed": false, "url": "https://www.yelp.com/biz/kai-zan-chicago?adjust_creative=e8rBV-hfcPScCMjwOETgGg&utm_campaign=yelp_api_v3&utm_medium=api_v3_business_search&utm_source=e8rBV-hfcPScCMjwOETgGg", "review_count": 1243, "categories": [{"alias": "asianfusion", "title": "Asian Fusion"}, {"alias": "japanese", "title": "Japanese"}, {"alias": "sushi", "title": "Sushi Bars"}], "rating": 4.5, "coordinates": {"latitude": 41.8955051374998, "longitude": -87.6915407180786}, "transactions": ["restaurant_reservation", "delivery"], "price": "$$$", "location": {"address1": "2557 W Chicago Ave", "address2": null, "address3": "", "city": "Chicago", "zip_code": "60622", "country": "US", "state": "IL", "display_address": ["2557 W Chicago Ave", "Chicago, IL 60622"]}, "phone": "+17732785776", "display_phone": "(773) 278-5776", "distance": 1565.9738189879604}, {"id": "-gt8O2X5JO9Bx64GPxgkBA", "alias": "komorebi-sushi-chicago", "name": "Komorebi Sushi", "image_url": "https://s3-media4.fl.yelpcdn.com/bphoto/lYrBIA_kVtXuIy3hnxpBsw/o.jpg", "is_closed": false, "url": "https://www.yelp.com/biz/komorebi-sushi-chicago?adjust_creative=e8rBV-hfcPScCMjwOETgGg&utm_campaign=yelp_api_v3&utm_medium=api_v3_business_search&utm_source=e8rBV-hfcPScCMjwOETgGg", "review_count": 296, "categories": [{"alias": "sushi", "title": "Sushi Bars"}, {"alias": "seafood", "title": "Seafood"}], "rating": 4.5, "coordinates": {"latitude": 41.90558, "longitude": -87.67037}, "transactions": ["pickup", "delivery"], "price": "$$", "location": {"address1": "1324 N Milwaukee Ave", "address2": null, "address3": "", "city": "Chicago", "zip_code": "60622", "country": "US", "state": "IL", "display_address": ["1324 N Milwaukee Ave", "Chicago, IL 60622"]}, "phone": "+17736611243", "display_phone": "(773) 661-1243", "distance": 620.1819535725696}, {"id": "0QrwY9-LhKlFkVdow3y8sw", "alias": "nuki-sushi-restaurant-chicago", "name": "Nuki Sushi Restaurant", "image_url": "https://s3-media3.fl.yelpcdn.com/bphoto/RnsxodKi_Rza-BnsDZ_qnw/o.jpg", "is_closed": false, "url": "https://www.yelp.com/biz/nuki-sushi-restaurant-chicago?adjust_creative=e8rBV-hfcPScCMjwOETgGg&utm_campaign=yelp_api_v3&utm_medium=api_v3_business_search&utm_source=e8rBV-hfcPScCMjwOETgGg", "review_count": 37, "categories": [{"alias": "sushi", "title": "Sushi Bars"}, {"alias": "japanese", "title": "Japanese"}], "rating": 5.0, "coordinates": {"latitude": 41.891246, "longitude": -87.6626}, "transactions": ["pickup", "delivery"], "location": {"address1": "1406 West Grand Ave", "address2": "Ste 1", "address3": "", "city": "Chicago", "zip_code": "60642", "country": "US", "state": "IL", "display_address": ["1406 West Grand Ave", "Ste 1", "Chicago, IL 60642"]}, "phone": "+17735011999", "display_phone": "(773) 501-1999", "distance": 1993.0065523621658}, {"id": "_d5Br6nZWpBNwL-4isroJA", "alias": "yuzu-sushi-and-robata-grill-chicago", "name": "Yuzu Sushi & Robata Grill", "image_url": "https://s3-media1.fl.yelpcdn.com/bphoto/qLdJlyTYaUWtlEBftTHWqg/o.jpg", "is_closed": false, "url": "https://www.yelp.com/biz/yuzu-sushi-and-robata-grill-chicago?adjust_creative=e8rBV-hfcPScCMjwOETgGg&utm_campaign=yelp_api_v3&utm_medium=api_v3_business_search&utm_source=e8rBV-hfcPScCMjwOETgGg", "review_count": 1883, "categories": [{"alias": "japanese", "title": "Japanese"}, {"alias": "sushi", "title": "Sushi Bars"}], "rating": 4.0, "coordinates": {"latitude": 41.89569, "longitude": -87.67172}, "transactions": ["pickup", "delivery"], "price": "$$", "location": {"address1": "1751 W Chicago Ave", "address2": null, "address3": "", "city": "Chicago", "zip_code": "60622", "country": "US", "state": "IL", "display_address": ["1751 W Chicago Ave", "Chicago, IL 60622"]}, "phone": "+13126664100", "display_phone": "(312) 666-4100", "distance": 1154.6192375859011}, {"id": "ORmcMLOKq9XPLmPGxIyABg", "alias": "kyoku-sushi-chicago", "name": "Kyoku Sushi", "image_url": "https://s3-media2.fl.yelpcdn.com/bphoto/_OABYIOBznlV9J1n_MyFmA/o.jpg", "is_closed": false, "url": "https://www.yelp.com/biz/kyoku-sushi-chicago?adjust_creative=e8rBV-hfcPScCMjwOETgGg&utm_campaign=yelp_api_v3&utm_medium=api_v3_business_search&utm_source=e8rBV-hfcPScCMjwOETgGg", "review_count": 76, "categories": [{"alias": "sushi", "title": "Sushi Bars"}, {"alias": "japanese", "title": "Japanese"}, {"alias": "asianfusion", "title": "Asian Fusion"}], "rating": 4.5, "coordinates": {"latitude": 41.92746, "longitude": -87.65206}, "transactions": [], "location": {"address1": "2518 N Lincoln Ave", "address2": null, "address3": "", "city": "Chicago", "zip_code": "60614", "country": "US", "state": "IL", "display_address": ["2518 N Lincoln Ave", "Chicago, IL 60614"]}, "phone": "+17736974243", "display_phone": "(773) 697-4243", "distance": 3278.1556189290295}, {"id": "mtjJUQN_KaBPG26nlPXzUg", "alias": "raiz-kitchen-sushi-bar-chicago", "name": "Raiz Kitchen Sushi Bar", "image_url": "https://s3-media3.fl.yelpcdn.com/bphoto/VQ9gNzQEFYP2qC_Q1x0c_Q/o.jpg", "is_closed": false, "url": "https://www.yelp.com/biz/raiz-kitchen-sushi-bar-chicago?adjust_creative=e8rBV-hfcPScCMjwOETgGg&utm_campaign=yelp_api_v3&utm_medium=api_v3_business_search&utm_source=e8rBV-hfcPScCMjwOETgGg", "review_count": 108, "categories": [{"alias": "sushi", "title": "Sushi Bars"}, {"alias": "newamerican", "title": "New American"}], "rating": 4.5, "coordinates": {"latitude": 41.924935, "longitude": -87.710448}, "transactions": ["pickup", "delivery"], "location": {"address1": "3276 W Fullerton Ave", "address2": "", "address3": null, "city": "Chicago", "zip_code": "60647", "country": "US", "state": "IL", "display_address": ["3276 W Fullerton Ave", "Chicago, IL 60647"]}, "phone": "+17734896262", "display_phone": "(773) 489-6262", "distance": 3478.870076650796}, {"id": "87bmC0ZQ3pVU-wxRGtRkkQ", "alias": "sushi-plus-rotary-sushi-bar-chinatown-chicago", "name": "Sushi Plus Rotary Sushi Bar - Chinatown", "image_url": "https://s3-media4.fl.yelpcdn.com/bphoto/YNVWBbFI3fIKMyqbYA9UiA/o.jpg", "is_closed": false, "url": "https://www.yelp.com/biz/sushi-plus-rotary-sushi-bar-chinatown-chicago?adjust_creative=e8rBV-hfcPScCMjwOETgGg&utm_campaign=yelp_api_v3&utm_medium=api_v3_business_search&utm_source=e8rBV-hfcPScCMjwOETgGg", "review_count": 418, "categories": [{"alias": "sushi", "title": "Sushi Bars"}, {"alias": "ramen", "title": "Ramen"}], "rating": 4.5, "coordinates": {"latitude": 41.853511, "longitude": -87.632959}, "transactions": ["pickup"], "price": "$$", "location": {"address1": "2131 S Archer Ave", "address2": "", "address3": null, "city": "Chicago", "zip_code": "60616", "country": "US", "state": "IL", "display_address": ["2131 S Archer Ave", "Chicago, IL 60616"]}, "phone": "+13129292446", "display_phone": "(312) 929-2446", "distance": 6835.410307196334}, {"id": "RHg0bWa8GMc5545DjylQkg", "alias": "haru-sushi-chicago", "name": "Haru Sushi", "image_url": "https://s3-media1.fl.yelpcdn.com/bphoto/xRGuymKrDBMRpyLJlmGq_g/o.jpg", "is_closed": false, "url": "https://www.yelp.com/biz/haru-sushi-chicago?adjust_creative=e8rBV-hfcPScCMjwOETgGg&utm_campaign=yelp_api_v3&utm_medium=api_v3_business_search&utm_source=e8rBV-hfcPScCMjwOETgGg", "review_count": 27, "categories": [{"alias": "sushi", "title": "Sushi Bars"}], "rating": 4.5, "coordinates": {"latitude": 41.91720523053412, "longitude": -87.71052319072946}, "transactions": ["pickup", "delivery"], "location": {"address1": "3301 W Armitage Ave", "address2": "", "address3": null, "city": "Chicago", "zip_code": "60647", "country": "US", "state": "IL", "display_address": ["3301 W Armitage Ave", "Chicago, IL 60647"]}, "phone": "+17736619494", "display_phone": "(773) 661-9494", "distance": 3023.5944472858305}, {"id": "F-Iuc4g1n4jYcivajguVog", "alias": "sushi-taku-logan-square-chicago-2", "name": "Sushi Taku - Logan Square", "image_url": "https://s3-media2.fl.yelpcdn.com/bphoto/u4f8Qh6lqXRlREiVk1607w/o.jpg", "is_closed": false, "url": "https://www.yelp.com/biz/sushi-taku-logan-square-chicago-2?adjust_creative=e8rBV-hfcPScCMjwOETgGg&utm_campaign=yelp_api_v3&utm_medium=api_v3_business_search&utm_source=e8rBV-hfcPScCMjwOETgGg", "review_count": 224, "categories": [{"alias": "sushi", "title": "Sushi Bars"}], "rating": 4.0, "coordinates": {"latitude": 41.92269, "longitude": -87.69643}, "transactions": ["pickup", "delivery"], "price": "$$", "location": {"address1": "2283 N Milwaukee Ave", "address2": null, "address3": "", "city": "Chicago", "zip_code": "60647", "country": "US", "state": "IL", "display_address": ["2283 N Milwaukee Ave", "Chicago, IL 60647"]}, "phone": "+17737998130", "display_phone": "(773) 799-8130", "distance": 2488.8149304476015}, {"id": "kUpqpEqkBjZguS1uA6NQYA", "alias": "en-hakkore-2-0-chicago-15", "name": "En Hakkore 2.0", "image_url": "https://s3-media3.fl.yelpcdn.com/bphoto/QO3A1d-5GkMHMIknJYml0A/o.jpg", "is_closed": false, "url": "https://www.yelp.com/biz/en-hakkore-2-0-chicago-15?adjust_creative=e8rBV-hfcPScCMjwOETgGg&utm_campaign=yelp_api_v3&utm_medium=api_v3_business_search&utm_source=e8rBV-hfcPScCMjwOETgGg", "review_count": 571, "categories": [{"alias": "asianfusion", "title": "Asian Fusion"}, {"alias": "poke", "title": "Poke"}, {"alias": "sushi", "title": "Sushi Bars"}], "rating": 4.5, "coordinates": {"latitude": 41.90859268098761, "longitude": -87.67442096514347}, "transactions": ["pickup", "delivery"], "price": "$$", "location": {"address1": "1467 N Milwaukee Ave", "address2": null, "address3": "", "city": "Chicago", "zip_code": "60622", "country": "US", "state": "IL", "display_address": ["1467 N Milwaukee Ave", "Chicago, IL 60622"]}, "phone": "+17732785959", "display_phone": "(773) 278-5959", "distance": 471.5212124464155}, {"id": "iiCvrkmiGzSu0pA83FdJrA", "alias": "sushi-by-bou-chicago-4", "name": "Sushi by Bou - West Loop", "image_url": "https://s3-media2.fl.yelpcdn.com/bphoto/1JSqXzKDbvQRC0J4U8Lakw/o.jpg", "is_closed": false, "url": "https://www.yelp.com/biz/sushi-by-bou-chicago-4?adjust_creative=e8rBV-hfcPScCMjwOETgGg&utm_campaign=yelp_api_v3&utm_medium=api_v3_business_search&utm_source=e8rBV-hfcPScCMjwOETgGg", "review_count": 44, "categories": [{"alias": "sushi", "title": "Sushi Bars"}, {"alias": "japanese", "title": "Japanese"}], "rating": 4.5, "coordinates": {"latitude": 41.887458, "longitude": -87.651931}, "transactions": [], "location": {"address1": "311 N Morgan St", "address2": null, "address3": "", "city": "Chicago", "zip_code": "60607", "country": "US", "state": "IL", "display_address": ["311 N Morgan St", "Chicago, IL 60607"]}, "phone": "+13128181156", "display_phone": "(312) 818-1156", "distance": 2907.487190400195}, {"id": "jwRq3eoR_oWC2GgbB34V7Q", "alias": "sushi-by-scratch-restaurants-chicago-chicago", "name": "Sushi by Scratch Restaurants: Chicago", "image_url": "https://s3-media1.fl.yelpcdn.com/bphoto/aj9qhsEwC4whmBXIAsdNDQ/o.jpg", "is_closed": false, "url": "https://www.yelp.com/biz/sushi-by-scratch-restaurants-chicago-chicago?adjust_creative=e8rBV-hfcPScCMjwOETgGg&utm_campaign=yelp_api_v3&utm_medium=api_v3_business_search&utm_source=e8rBV-hfcPScCMjwOETgGg", "review_count": 21, "categories": [{"alias": "sushi", "title": "Sushi Bars"}], "rating": 5.0, "coordinates": {"latitude": 41.889635, "longitude": -87.644829}, "transactions": [], "location": {"address1": "415 N Milwaukee Ave", "address2": null, "address3": "", "city": "Chicago", "zip_code": "60654", "country": "US", "state": "IL", "display_address": ["415 N Milwaukee Ave", "Chicago, IL 60654"]}, "phone": "", "display_phone": "", "distance": 3225.7328053633805}, {"id": "dw-dsVgjiDzr8pbw0iVk1A", "alias": "ky\u014dten-chicago", "name": "Ky\u014dten", "image_url": "https://s3-media2.fl.yelpcdn.com/bphoto/bY6RAlrsnFZ3ihJc0SZDrQ/o.jpg", "is_closed": false, "url": "https://www.yelp.com/biz/ky%C5%8Dten-chicago?adjust_creative=e8rBV-hfcPScCMjwOETgGg&utm_campaign=yelp_api_v3&utm_medium=api_v3_business_search&utm_source=e8rBV-hfcPScCMjwOETgGg", "review_count": 71, "categories": [{"alias": "sushi", "title": "Sushi Bars"}], "rating": 4.5, "coordinates": {"latitude": 41.91743, "longitude": -87.69009}, "transactions": [], "location": {"address1": "2507 W Armitage Ave", "address2": "", "address3": null, "city": "Chicago", "zip_code": "60647", "country": "US", "state": "IL", "display_address": ["2507 W Armitage Ave", "Chicago, IL 60647"]}, "phone": "+13128809402", "display_phone": "(312) 880-9402", "distance": 1712.9014839402337}, {"id": "UqoxOHG50O9R48lg2WOdBg", "alias": "yokocho-chicago-3", "name": "Yokocho", "image_url": "https://s3-media4.fl.yelpcdn.com/bphoto/ArO1reKvBc-Cn3Y29KDXSw/o.jpg", "is_closed": false, "url": "https://www.yelp.com/biz/yokocho-chicago-3?adjust_creative=e8rBV-hfcPScCMjwOETgGg&utm_campaign=yelp_api_v3&utm_medium=api_v3_business_search&utm_source=e8rBV-hfcPScCMjwOETgGg", "review_count": 27, "categories": [{"alias": "cocktailbars", "title": "Cocktail Bars"}, {"alias": "japanese", "title": "Japanese"}, {"alias": "sushi", "title": "Sushi Bars"}], "rating": 4.5, "coordinates": {"latitude": 41.88512, "longitude": -87.64829}, "transactions": ["pickup", "delivery"], "location": {"address1": "167 N Green St", "address2": "Back Alley", "address3": "", "city": "Chicago", "zip_code": "60607", "country": "US", "state": "IL", "display_address": ["167 N Green St", "Back Alley", "Chicago, IL 60607"]}, "phone": "+13128901119", "display_phone": "(312) 890-1119", "distance": 3289.2731873519506}, {"id": "Wh1zkkgr-EhQMNeYN9XdSg", "alias": "312-fish-market-chicago", "name": "312 Fish Market", "image_url": "https://s3-media1.fl.yelpcdn.com/bphoto/T6jUin48jqW3gi_fchyV-Q/o.jpg", "is_closed": false, "url": "https://www.yelp.com/biz/312-fish-market-chicago?adjust_creative=e8rBV-hfcPScCMjwOETgGg&utm_campaign=yelp_api_v3&utm_medium=api_v3_business_search&utm_source=e8rBV-hfcPScCMjwOETgGg", "review_count": 202, "categories": [{"alias": "sushi", "title": "Sushi Bars"}, {"alias": "japanese", "title": "Japanese"}], "rating": 4.5, "coordinates": {"latitude": 41.85432, "longitude": -87.6416}, "transactions": ["restaurant_reservation", "pickup", "delivery"], "price": "$$", "location": {"address1": "2105 S Jefferson St", "address2": "", "address3": null, "city": "Chicago", "zip_code": "60616", "country": "US", "state": "IL", "display_address": ["2105 S Jefferson St", "Chicago, IL 60616"]}, "phone": "+18722227288", "display_phone": "(872) 222-7288", "distance": 6437.148592883637}, {"id": "mlhHPnHmjO2_ypcP5Vc9Zw", "alias": "coast-sushi-bar-chicago", "name": "Coast Sushi Bar", "image_url": "https://s3-media1.fl.yelpcdn.com/bphoto/cfvQ6CJ2D86FkiAGN8gHHg/o.jpg", "is_closed": false, "url": "https://www.yelp.com/biz/coast-sushi-bar-chicago?adjust_creative=e8rBV-hfcPScCMjwOETgGg&utm_campaign=yelp_api_v3&utm_medium=api_v3_business_search&utm_source=e8rBV-hfcPScCMjwOETgGg", "review_count": 1208, "categories": [{"alias": "sushi", "title": "Sushi Bars"}], "rating": 4.0, "coordinates": {"latitude": 41.91905078950868, "longitude": -87.67753}, "transactions": ["pickup", "delivery"], "price": "$$", "location": {"address1": "2045 N Damen Ave", "address2": "", "address3": "", "city": "Chicago", "zip_code": "60647", "country": "US", "state": "IL", "display_address": ["2045 N Damen Ave", "Chicago, IL 60647"]}, "phone": "+17732355775", "display_phone": "(773) 235-5775", "distance": 1544.7886001751394}, {"id": "tB2QY2ec1JSYtLTHQ4p5Xg", "alias": "gari-sushi-chicago-4", "name": "Gari Sushi ", "image_url": "https://s3-media3.fl.yelpcdn.com/bphoto/X-vb5SMAqHkREy4mAieu3A/o.jpg", "is_closed": false, "url": "https://www.yelp.com/biz/gari-sushi-chicago-4?adjust_creative=e8rBV-hfcPScCMjwOETgGg&utm_campaign=yelp_api_v3&utm_medium=api_v3_business_search&utm_source=e8rBV-hfcPScCMjwOETgGg", "review_count": 3, "categories": [{"alias": "japanese", "title": "Japanese"}, {"alias": "sushi", "title": "Sushi Bars"}], "rating": 5.0, "coordinates": {"latitude": 41.92458, "longitude": -87.69023}, "transactions": ["pickup", "delivery"], "location": {"address1": "2507 W Fullerton Ave", "address2": null, "address3": "", "city": "Chicago", "zip_code": "60647", "country": "US", "state": "IL", "display_address": ["2507 W Fullerton Ave", "Chicago, IL 60647"]}, "phone": "+17739628723", "display_phone": "(773) 962-8723", "distance": 2403.4744627134896}, {"id": "ntT2TITlnyB3K5shr2WNwQ", "alias": "kaido-sushi-arlington-heights-7", "name": "Kaido Sushi", "image_url": "https://s3-media4.fl.yelpcdn.com/bphoto/6_oR5YW3v3mYoOsHrhA9Xg/o.jpg", "is_closed": false, "url": "https://www.yelp.com/biz/kaido-sushi-arlington-heights-7?adjust_creative=e8rBV-hfcPScCMjwOETgGg&utm_campaign=yelp_api_v3&utm_medium=api_v3_business_search&utm_source=e8rBV-hfcPScCMjwOETgGg", "review_count": 69, "categories": [{"alias": "sushi", "title": "Sushi Bars"}], "rating": 5.0, "coordinates": {"latitude": 42.0503618, "longitude": -87.983753}, "transactions": [], "location": {"address1": "45 W Golf Rd", "address2": "", "address3": null, "city": "Arlington Heights", "zip_code": "60005", "country": "US", "state": "IL", "display_address": ["45 W Golf Rd", "Arlington Heights, IL 60005"]}, "phone": "+18472583592", "display_phone": "(847) 258-3592", "distance": 29970.215694032988}], "total": 1200, "region": {"center": {"longitude": -87.67776489257812, "latitude": 41.90515925618311}}}